
 Request - 2021-10-04 05:49:26
{"method":"getCityIdByAddressOrLatLng","address":"Barh-Sahari-Sarmera Rd, Kundi, Bihar 803214, India","lat":"25.411395","lng":"85.7687471"}
 Response :- 
{"status":"success","data":{"id":1,"city_name":"Accra","city_synonym":"Accra, tema, Ghana","country_id":4,"customer_care_number":"233553354848","created_on":"2018-05-26 11:47:48","updated_on":"2020-02-26 08:47:48","city":"CQ69+HF Kundi, Bihar, India"}}
 Request - 2021-10-04 07:40:54
{"method":"getCityIdByAddressOrLatLng","address":"Main Road, Ghoshpara, Tarapukur Rd, Sukanto Pally, Tara Pukur South, Agarpara, Kolkata, West Bengal 700109, India","lat":"22.6854249","lng":"88.3880045"}
 Response :- 
{"status":"success","data":{"id":1,"city_name":"Accra","city_synonym":"Accra, tema, Ghana","country_id":4,"customer_care_number":"233553354848","created_on":"2018-05-26 11:47:48","updated_on":"2020-02-26 08:47:48","city":"Main Road, Ghoshpara, Tarapukur Rd, Sukanto Pally, Tara Pukur South, Agarpara, Kolkata, West Bengal 700109, India"}}
 Request - 2021-10-04 09:47:00
{"method":"getCityIdByAddressOrLatLng","address":"8HT, Field Rd, London W6 8HS, UK","lat":"51.4863859","lng":"-0.2134482"}
 Response :- 
{"status":"success","data":{"id":1,"city_name":"Accra","city_synonym":"Accra, tema, Ghana","country_id":4,"customer_care_number":"233553354848","created_on":"2018-05-26 11:47:48","updated_on":"2020-02-26 08:47:48","city":"8HT, Field Rd, London W6 8HS, UK"}}
 Request - 2021-10-04 13:14:24
{"method":"getCityIdByAddressOrLatLng","address":"Ndiane, Sénégal","lat":"15.088735","lng":"-16.329626"}
 Response :- 
{"status":"success","data":{"id":1,"city_name":"Accra","city_synonym":"Accra, tema, Ghana","country_id":4,"customer_care_number":"233553354848","created_on":"2018-05-26 11:47:48","updated_on":"2020-02-26 08:47:48","city":"3MQC+F4 Ndiane, Senegal"}}
 Request - 2021-10-04 16:38:38
{"method":"getCityIdByAddressOrLatLng","address":"طريق القراداشليه، سوريا","lat":"36.6350881","lng":"37.7734668"}
 Response :- 
{"status":"success","data":{"id":1,"city_name":"Accra","city_synonym":"Accra, tema, Ghana","country_id":4,"customer_care_number":"233553354848","created_on":"2018-05-26 11:47:48","updated_on":"2020-02-26 08:47:48","city":"JQPF+29 M\u0130RZE ALSHAH\u0130D, Syria"}}
 Request - 2021-10-04 17:20:36
{"method":"getCityIdByAddressOrLatLng","address":"1 Kpentenplebi Rd, Accra, Ghana","lat":"5.609372299999999","lng":"-0.2081804"}
 Response :- 
{"status":"success","data":{"id":1,"city_name":"Accra","city_synonym":"Accra, tema, Ghana","country_id":4,"customer_care_number":"233553354848","created_on":"2018-05-26 11:47:48","updated_on":"2020-02-26 08:47:48","city":"1 Kpentenplebi Rd, Accra, Ghana"}}