
 Request - 2022-07-22 02:13:12
{"method":"getCityIdByAddressOrLatLng","address":"MGMW+W26, C. Los Taínos, Punta Cana 23000, República Dominicana","lat":"18.6843725","lng":"-68.45512"}
 Response :- 
{"status":"success","data":{"id":1,"city_name":"Accra","city_synonym":"Accra, tema, Ghana","country_id":4,"customer_care_number":"233553354848","created_on":"2018-05-26 11:47:48","updated_on":"2020-02-26 08:47:48","city":"MGMW+W26, C. Los Ta\u00ednos, Punta Cana 23000, Dominican Republic"}}
 Request - 2022-07-22 02:15:38
{"method":"getCityIdByAddressOrLatLng","address":"5FV7+8FX, Sukasari, Kec. Mandirancan, Kabupaten Kuningan, Jawa Barat 45558, Indonesia","lat":"-6.8065518","lng":"108.464013"}
 Response :- 
{"status":"success","data":{"id":1,"city_name":"Accra","city_synonym":"Accra, tema, Ghana","country_id":4,"customer_care_number":"233553354848","created_on":"2018-05-26 11:47:48","updated_on":"2020-02-26 08:47:48","city":"5FV7+8FX, Sukasari, Mandirancan, Kuningan Regency, West Java 45558, Indonesia"}}
 Request - 2022-07-22 04:12:22
{"method":"getCityIdByAddressOrLatLng","address":"ຖະໜົນບໍ່ມີຊື່, ປະເທດລາວ","lat":"19.8606164","lng":"104.8259448"}
 Response :- 
{"status":"success","data":{"id":1,"city_name":"Accra","city_synonym":"Accra, tema, Ghana","country_id":4,"customer_care_number":"233553354848","created_on":"2018-05-26 11:47:48","updated_on":"2020-02-26 08:47:48","city":"VR6G+69 Nam Khan, Laos"}}
 Request - 2022-07-22 14:50:55
{"method":"getCityIdByAddressOrLatLng","address":"Route sans nom, République démocratique du Congo","lat":"-12.7533161","lng":"28.5366083"}
 Response :- 
{"status":"success","data":{"id":1,"city_name":"Accra","city_synonym":"Accra, tema, Ghana","country_id":4,"customer_care_number":"233553354848","created_on":"2018-05-26 11:47:48","updated_on":"2020-02-26 08:47:48","city":"6GWP+MJ Sakania, Democratic Republic of the Congo"}}
 Request - 2022-07-22 18:50:18
{"method":"getCityIdByAddressOrLatLng","address":"A2, 824102, Nigeria","lat":"13.1089624","lng":"8.299976"}
 Response :- 
{"status":"success","data":{"id":1,"city_name":"Accra","city_synonym":"Accra, tema, Ghana","country_id":4,"customer_care_number":"233553354848","created_on":"2018-05-26 11:47:48","updated_on":"2020-02-26 08:47:48","city":"475X+HX Tsofan Birni, Nigeria"}}
 Request - 2022-07-22 19:02:12
{"method":"getCityIdByAddressOrLatLng","address":"6GR5+V9J, Chenab Blvd, Wapda Town Phase 1 Multan, Punjab, Pakistan","lat":"30.242294","lng":"71.5081282"}
 Response :- 
{"status":"success","data":{"id":1,"city_name":"Accra","city_synonym":"Accra, tema, Ghana","country_id":4,"customer_care_number":"233553354848","created_on":"2018-05-26 11:47:48","updated_on":"2020-02-26 08:47:48","city":"6GR5+V9J, Chenab Blvd, Wapda Town Phase 1 Multan, Punjab, Pakistan"}}