
 Request - 2021-08-07 04:41:36
{"method":"getCityIdByAddressOrLatLng","address":"2178, D Ward, Shukrawar Peth, Kolhapur, Maharashtra 416002, India","lat":"16.700544","lng":"74.2177491"}
 Response :- 
{"status":"success","data":{"id":1,"city_name":"Accra","city_synonym":"Accra, tema, Ghana","country_id":4,"customer_care_number":"233553354848","created_on":"2018-05-26 11:47:48","updated_on":"2020-02-26 08:47:48","city":"2178, D Ward, Shukrawar Peth, Kolhapur, Maharashtra 416002, India"}}
 Request - 2021-08-07 08:17:33
{"method":"getCityIdByAddressOrLatLng","address":"19b Muyenga Road, Kampala, Uganda","lat":"0.2988918","lng":"32.6014843"}
 Response :- 
{"status":"success","data":{"id":1,"city_name":"Accra","city_synonym":"Accra, tema, Ghana","country_id":4,"customer_care_number":"233553354848","created_on":"2018-05-26 11:47:48","updated_on":"2020-02-26 08:47:48","city":"19b Muyenga Road, Kampala, Uganda"}}
 Request - 2021-08-07 08:31:24
{"method":"getCityIdByAddressOrLatLng","address":"GX5R+8W6, Nguékhokh, Sénégal","lat":"14.5086363","lng":"-17.0080746"}
 Response :- 
{"status":"success","data":{"id":1,"city_name":"Accra","city_synonym":"Accra, tema, Ghana","country_id":4,"customer_care_number":"233553354848","created_on":"2018-05-26 11:47:48","updated_on":"2020-02-26 08:47:48","city":"GX5R+8W6, Nguekhokhe, Senegal"}}
 Request - 2021-08-07 10:46:58
{"method":"getCityIdByAddressOrLatLng","address":"Kasoa, Ghana","lat":"5.5344155","lng":"-0.4252737"}
 Response :- 
{"status":"success","data":{"id":1,"city_name":"Accra","city_synonym":"Accra, tema, Ghana","country_id":4,"customer_care_number":"233553354848","created_on":"2018-05-26 11:47:48","updated_on":"2020-02-26 08:47:48","city":"Kasoa, Ghana"}}
 Request - 2021-08-07 16:48:05
{"method":"getCityIdByAddressOrLatLng","address":"HH3X+XC4 Baba Ki Bagichi, Kala Kuan, Housing Board, Aravali Vihar, Alwar, Rajasthan 301001, India","lat":"27.5547861","lng":"76.5984861"}
 Response :- 
{"status":"success","data":{"id":1,"city_name":"Accra","city_synonym":"Accra, tema, Ghana","country_id":4,"customer_care_number":"233553354848","created_on":"2018-05-26 11:47:48","updated_on":"2020-02-26 08:47:48","city":"HH3X+XC4 Baba Ki Bagichi, Kala Kuan, Housing Board, Aravali Vihar, Alwar, Rajasthan 301001, India"}}
 Request - 2021-08-07 17:39:28
{"method":"getCityIdByAddressOrLatLng","address":"J7VQ+QHQ, Kinshasa, République démocratique du Congo","lat":"-4.3554404","lng":"15.2887896"}
 Response :- 
{"status":"success","data":{"id":1,"city_name":"Accra","city_synonym":"Accra, tema, Ghana","country_id":4,"customer_care_number":"233553354848","created_on":"2018-05-26 11:47:48","updated_on":"2020-02-26 08:47:48","city":"J7VQ+QHQ, Kinshasa, Democratic Republic of the Congo"}}