
 Request - 2021-09-02 00:50:42
{"method":"getCityIdByAddressOrLatLng","address":"6c Natete 12335, Kampala, Uganda","lat":"0.3015915","lng":"32.5343709"}
 Response :- 
{"status":"success","data":{"id":1,"city_name":"Accra","city_synonym":"Accra, tema, Ghana","country_id":4,"customer_care_number":"233553354848","created_on":"2018-05-26 11:47:48","updated_on":"2020-02-26 08:47:48","city":"6c Natete 12335, Kampala, Uganda"}}
 Request - 2021-09-02 10:59:02
{"method":"getCityIdByAddressOrLatLng","address":"QWX3+9QC, 120103, Ijebu Ode, Nigeria","lat":"6.7975036","lng":"3.9035624"}
 Response :- 
{"status":"success","data":{"id":1,"city_name":"Accra","city_synonym":"Accra, tema, Ghana","country_id":4,"customer_care_number":"233553354848","created_on":"2018-05-26 11:47:48","updated_on":"2020-02-26 08:47:48","city":"QWX3+9QC, 120103, Ijebu Ode, Nigeria"}}
 Request - 2021-09-02 13:07:15
{"method":"getCityIdByAddressOrLatLng","address":"Unnamed Road, Al Khurtum, Sudan","lat":"15.4960834","lng":"32.5632573"}
 Response :- 
{"status":"success","data":{"id":1,"city_name":"Accra","city_synonym":"Accra, tema, Ghana","country_id":4,"customer_care_number":"233553354848","created_on":"2018-05-26 11:47:48","updated_on":"2020-02-26 08:47:48","city":"Unnamed Road, Al Khurtum, Sudan"}}
 Request - 2021-09-02 14:01:28
{"method":"getCityIdByAddressOrLatLng","address":"Unnamed Road, Dakar, Sénégal","lat":"14.7709032","lng":"-17.3509544"}
 Response :- 
{"status":"success","data":{"id":1,"city_name":"Accra","city_synonym":"Accra, tema, Ghana","country_id":4,"customer_care_number":"233553354848","created_on":"2018-05-26 11:47:48","updated_on":"2020-02-26 08:47:48","city":"Unnamed Road, Dakar, Senegal"}}
 Request - 2021-09-02 15:54:03
{"method":"getCityIdByAddressOrLatLng","address":"QQHC+JJG, Ayubpur, Bangladesh","lat":"23.778730000000003","lng":"90.77091666666665"}
 Response :- 
{"status":"success","data":{"id":1,"city_name":"Accra","city_synonym":"Accra, tema, Ghana","country_id":4,"customer_care_number":"233553354848","created_on":"2018-05-26 11:47:48","updated_on":"2020-02-26 08:47:48","city":"QQHC+JJG, Ayubpur, Bangladesh"}}
 Request - 2021-09-02 22:07:12
{"method":"getCityIdByAddressOrLatLng","address":"Unnamed Road, Sénégal","lat":"14.7846703","lng":"-17.3241225"}
 Response :- 
{"status":"success","data":{"id":1,"city_name":"Accra","city_synonym":"Accra, tema, Ghana","country_id":4,"customer_care_number":"233553354848","created_on":"2018-05-26 11:47:48","updated_on":"2020-02-26 08:47:48","city":"Unnamed Road, Senegal"}}