
 Request - 2022-10-02 02:55:14
{"method":"getCityIdByAddressOrLatLng","address":"6VQV+5M6, Thangadapally, Telangana 508252, India","lat":"17.2381173","lng":"78.8941355"}
 Response :- 
{"status":"success","data":{"id":1,"city_name":"Accra","city_synonym":"Accra, tema, Ghana","country_id":4,"customer_care_number":"233553354848","created_on":"2018-05-26 11:47:48","updated_on":"2020-02-26 08:47:48","city":"6VQV+5M6, Thangadapally, Telangana 508252, India"}}
 Request - 2022-10-02 06:05:47
{"method":"getCityIdByAddressOrLatLng","address":"98b Mbogo Rd, Kampala, Uganda","lat":"0.3703766","lng":"32.5671454"}
 Response :- 
{"status":"success","data":{"id":1,"city_name":"Accra","city_synonym":"Accra, tema, Ghana","country_id":4,"customer_care_number":"233553354848","created_on":"2018-05-26 11:47:48","updated_on":"2020-02-26 08:47:48","city":"98b Mbogo Rd, Kampala, Uganda"}}
 Request - 2022-10-02 06:30:57
{"method":"getCityIdByAddressOrLatLng","address":"ھ 2، ضلع خیر پور, سندھ، پاکستان","lat":"27.1972115","lng":"68.4101308"}
 Response :- 
{"status":"success","data":{"id":1,"city_name":"Accra","city_synonym":"Accra, tema, Ghana","country_id":4,"customer_care_number":"233553354848","created_on":"2018-05-26 11:47:48","updated_on":"2020-02-26 08:47:48","city":"5CW6+V3 Hingorja, Pakistan"}}
 Request - 2022-10-02 14:29:26
{"method":"getCityIdByAddressOrLatLng","address":"J2Q3+W66, Krakue Rd, Tema, Ghana","lat":"5.6402987","lng":"0.0028241"}
 Response :- 
{"status":"success","data":{"id":1,"city_name":"Accra","city_synonym":"Accra, tema, Ghana","country_id":4,"customer_care_number":"233553354848","created_on":"2018-05-26 11:47:48","updated_on":"2020-02-26 08:47:48","city":"J2Q3+W66, Krakue Rd, Tema, Ghana"}}
 Request - 2022-10-02 20:04:48
{"method":"getCityIdByAddressOrLatLng","address":"13 Justice A. Brobbey Ave, Ghana","lat":"5.6306728","lng":"-0.2433352"}
 Response :- 
{"status":"success","data":{"id":1,"city_name":"Accra","city_synonym":"Accra, tema, Ghana","country_id":4,"customer_care_number":"233553354848","created_on":"2018-05-26 11:47:48","updated_on":"2020-02-26 08:47:48","city":"13 Justice A. Brobbey Ave, Ghana"}}