
 Request - 2022-08-29 09:49:45
{"method":"getCityIdByAddressOrLatLng","address":"Q8HP+WHG, Attock, Punjab, Pakistan","lat":"33.7790803","lng":"72.3361078"}
 Response :- 
{"status":"success","data":{"id":1,"city_name":"Accra","city_synonym":"Accra, tema, Ghana","country_id":4,"customer_care_number":"233553354848","created_on":"2018-05-26 11:47:48","updated_on":"2020-02-26 08:47:48","city":"Q8HP+WHG, Attock, Punjab, Pakistan"}}
 Request - 2022-08-29 10:35:29
{"method":"getCityIdByAddressOrLatLng","address":"Textorstraße, Frankfurt am Main, Germany","lat":"50.1012363","lng":"8.6855292"}
 Response :- 
{"status":"success","data":{"id":1,"city_name":"Accra","city_synonym":"Accra, tema, Ghana","country_id":4,"customer_care_number":"233553354848","created_on":"2018-05-26 11:47:48","updated_on":"2020-02-26 08:47:48","city":"Textorstra\u00dfe 42, 60594 Frankfurt am Main, Germany"}}
 Request - 2022-08-29 11:25:17
{"method":"getCityIdByAddressOrLatLng","address":"9a Eng. Sebuyungo Cl, Kampala, Uganda","lat":"0.2858403","lng":"32.6318285"}
 Response :- 
{"status":"success","data":{"id":1,"city_name":"Accra","city_synonym":"Accra, tema, Ghana","country_id":4,"customer_care_number":"233553354848","created_on":"2018-05-26 11:47:48","updated_on":"2020-02-26 08:47:48","city":"9a Eng. Sebuyungo Cl, Kampala, Uganda"}}
 Request - 2022-08-29 14:15:46
{"method":"getCityIdByAddressOrLatLng","address":"16b Estate Rd, Obia 500102, Port Harcourt, Nigeria","lat":"4.8413596","lng":"7.0372872"}
 Response :- 
{"status":"success","data":{"id":1,"city_name":"Accra","city_synonym":"Accra, tema, Ghana","country_id":4,"customer_care_number":"233553354848","created_on":"2018-05-26 11:47:48","updated_on":"2020-02-26 08:47:48","city":"16b Estate Rd, Rumuogba 500102, Port Harcourt, Nigeria"}}
 Request - 2022-08-29 16:24:14
{"method":"getCityIdByAddressOrLatLng","address":"W8V4+4P, Norosinhopur, Bangladesh","lat":"23.9431203","lng":"90.306187"}
 Response :- 
{"status":"success","data":{"id":1,"city_name":"Accra","city_synonym":"Accra, tema, Ghana","country_id":4,"customer_care_number":"233553354848","created_on":"2018-05-26 11:47:48","updated_on":"2020-02-26 08:47:48","city":"W8V4+4P, Norosinhopur, Bangladesh"}}
 Request - 2022-08-29 16:24:19
{"method":"getCityIdByAddressOrLatLng","address":"W8V4+4P, Norosinhopur, Bangladesh","lat":"23.9431203","lng":"90.306187"}
 Response :- 
{"status":"success","data":{"id":1,"city_name":"Accra","city_synonym":"Accra, tema, Ghana","country_id":4,"customer_care_number":"233553354848","created_on":"2018-05-26 11:47:48","updated_on":"2020-02-26 08:47:48","city":"W8V4+4P, Norosinhopur, Bangladesh"}}
 Request - 2022-08-29 19:46:40
{"method":"getCityIdByAddressOrLatLng","address":"Palia Rd, Belihan, Uttar Pradesh 262701, India","lat":"28.0417235","lng":"80.7496758"}
 Response :- 
{"status":"success","data":{"id":1,"city_name":"Accra","city_synonym":"Accra, tema, Ghana","country_id":4,"customer_care_number":"233553354848","created_on":"2018-05-26 11:47:48","updated_on":"2020-02-26 08:47:48","city":"2PRX+MV Belihan, Uttar Pradesh, India"}}
 Request - 2022-08-29 21:07:56
{"method":"getCityIdByAddressOrLatLng","address":"4J56+8G3, Bonabéri, Cameroon","lat":"4.107238066666667","lng":"9.611411416666666"}
 Response :- 
{"status":"success","data":{"id":1,"city_name":"Accra","city_synonym":"Accra, tema, Ghana","country_id":4,"customer_care_number":"233553354848","created_on":"2018-05-26 11:47:48","updated_on":"2020-02-26 08:47:48","city":"4J56+8G3, Bonab\u00e9ri, Cameroon"}}