
 Request - 2022-02-04 07:55:15
{"method":"getCityIdByAddressOrLatLng","address":"9WMC+P59, Nasirabad, Qambar Shahdadkot, Sindh, Pakistan","lat":"27.3854732","lng":"67.9197604"}
 Response :- 
{"status":"success","data":{"id":1,"city_name":"Accra","city_synonym":"Accra, tema, Ghana","country_id":4,"customer_care_number":"233553354848","created_on":"2018-05-26 11:47:48","updated_on":"2020-02-26 08:47:48","city":"9WMC+P59, Nasirabad, Qambar Shahdadkot, Sindh, Pakistan"}}
 Request - 2022-02-04 11:46:31
{"method":"getCityIdByAddressOrLatLng","address":"Route sans nom, Guinea","lat":"11.7533687","lng":"-9.1450963"}
 Response :- 
{"status":"success","data":{"id":1,"city_name":"Accra","city_synonym":"Accra, tema, Ghana","country_id":4,"customer_care_number":"233553354848","created_on":"2018-05-26 11:47:48","updated_on":"2020-02-26 08:47:48","city":"QV33+8X Nafadie, Guinea"}}
 Request - 2022-02-04 11:59:32
{"method":"getCityIdByAddressOrLatLng","address":"QMFH+F58, Tando Ādam, Sanghar, Sindh, Pakistan","lat":"25.7752469","lng":"68.6778137"}
 Response :- 
{"status":"success","data":{"id":1,"city_name":"Accra","city_synonym":"Accra, tema, Ghana","country_id":4,"customer_care_number":"233553354848","created_on":"2018-05-26 11:47:48","updated_on":"2020-02-26 08:47:48","city":"QMGH+34 Tando \u0100dam, Pakistan"}}
 Request - 2022-02-04 18:17:42
{"method":"getCityIdByAddressOrLatLng","address":"3157","lat":"31.6499992","lng":"35.1693517"}
 Response :- 
{"status":"success","data":{"id":1,"city_name":"Accra","city_synonym":"Accra, tema, Ghana","country_id":4,"customer_care_number":"233553354848","created_on":"2018-05-26 11:47:48","updated_on":"2020-02-26 08:47:48","city":"8G3QJ5X9+XP"}}
 Request - 2022-02-04 19:28:11
{"method":"getCityIdByAddressOrLatLng","address":"طريق الأمير تركي بن عبدالعزيز الأول، حي حطين،، حطين، الرياض 13513، السعودية","lat":"24.750504","lng":"46.6134937"}
 Response :- 
{"status":"success","data":{"id":1,"city_name":"Accra","city_synonym":"Accra, tema, Ghana","country_id":4,"customer_care_number":"233553354848","created_on":"2018-05-26 11:47:48","updated_on":"2020-02-26 08:47:48","city":"\u0637\u0631\u064a\u0642 \u0627\u0644\u0623\u0645\u064a\u0631 \u062a\u0631\u0643\u064a \u0628\u0646 \u0639\u0628\u062f\u0627\u0644\u0639\u0632\u064a\u0632 \u0627\u0644\u0623\u0648\u0644\u060c \u062d\u064a \u062d\u0637\u064a\u0646\u060c\u060c Hittin, Riyadh 13513, Saudi Arabia"}}