
 Request - 2021-09-19 03:07:25
{"method":"getCityIdByAddressOrLatLng","address":"Unnamed Road, Sénégal","lat":"12.9459707","lng":"-16.726488"}
 Response :- 
{"status":"success","data":{"id":1,"city_name":"Accra","city_synonym":"Accra, tema, Ghana","country_id":4,"customer_care_number":"233553354848","created_on":"2018-05-26 11:47:48","updated_on":"2020-02-26 08:47:48","city":"Unnamed Road, Senegal"}}
 Request - 2021-09-19 03:59:46
{"method":"getCityIdByAddressOrLatLng","address":"Unnamed Road, Diourbel, Sénégal","lat":"14.6387539","lng":"-16.2380566"}
 Response :- 
{"status":"success","data":{"id":1,"city_name":"Accra","city_synonym":"Accra, tema, Ghana","country_id":4,"customer_care_number":"233553354848","created_on":"2018-05-26 11:47:48","updated_on":"2020-02-26 08:47:48","city":"Unnamed Road, Diourbel, Senegal"}}
 Request - 2021-09-19 04:10:45
{"method":"getCityIdByAddressOrLatLng","address":"Parikrama Path, Kamta Mohalla, Sitapur, Chitrakoot, Madhya Pradesh 210204, India","lat":"25.1758872","lng":"80.8448713"}
 Response :- 
{"status":"success","data":{"id":1,"city_name":"Accra","city_synonym":"Accra, tema, Ghana","country_id":4,"customer_care_number":"233553354848","created_on":"2018-05-26 11:47:48","updated_on":"2020-02-26 08:47:48","city":"Parikrama Path, Kamta Mohalla, Sitapur, Chitrakoot, Madhya Pradesh 210204, India"}}
 Request - 2021-09-19 05:09:49
{"method":"getCityIdByAddressOrLatLng","address":"R95J+RGX, Ndiayene Bamba, Sénégal","lat":"13.8096044","lng":"-14.6186285"}
 Response :- 
{"status":"success","data":{"id":1,"city_name":"Accra","city_synonym":"Accra, tema, Ghana","country_id":4,"customer_care_number":"233553354848","created_on":"2018-05-26 11:47:48","updated_on":"2020-02-26 08:47:48","city":"R95J+RGX, Ndiayene Bamba, Senegal"}}
 Request - 2021-09-19 08:43:18
{"method":"getCityIdByAddressOrLatLng","address":"10264 Gava Cres, Harare, Zimbabwe","lat":"-17.885573","lng":"30.9365366"}
 Response :- 
{"status":"success","data":{"id":1,"city_name":"Accra","city_synonym":"Accra, tema, Ghana","country_id":4,"customer_care_number":"233553354848","created_on":"2018-05-26 11:47:48","updated_on":"2020-02-26 08:47:48","city":"10264 Gava Cres, Harare, Zimbabwe"}}
 Request - 2021-09-19 09:53:28
{"method":"getCityIdByAddressOrLatLng","address":"10, Manakaavalam Pillai Hospital Rd, Palayamkottai, Tirunelveli, Tamil Nadu 627002, India","lat":"8.7261421","lng":"77.7409242"}
 Response :- 
{"status":"success","data":{"id":1,"city_name":"Accra","city_synonym":"Accra, tema, Ghana","country_id":4,"customer_care_number":"233553354848","created_on":"2018-05-26 11:47:48","updated_on":"2020-02-26 08:47:48","city":"10, Manakaavalam Pillai Hospital Rd, Palayamkottai, Tirunelveli, Tamil Nadu 627002, India"}}
 Request - 2021-09-19 12:52:21
{"method":"getCityIdByAddressOrLatLng","address":"Saitawade Road, Khandala, Maharashtra 415613, India","lat":"17.2407517","lng":"73.2693488"}
 Response :- 
{"status":"success","data":{"id":1,"city_name":"Accra","city_synonym":"Accra, tema, Ghana","country_id":4,"customer_care_number":"233553354848","created_on":"2018-05-26 11:47:48","updated_on":"2020-02-26 08:47:48","city":"Saitawade Road, Khandala, Maharashtra 415613, India"}}
 Request - 2021-09-19 14:11:43
{"method":"getCityIdByAddressOrLatLng","address":"Unnamed Road, Nouakchott, Mauritanie","lat":"18.0007361","lng":"-15.9705385"}
 Response :- 
{"status":"success","data":{"id":1,"city_name":"Accra","city_synonym":"Accra, tema, Ghana","country_id":4,"customer_care_number":"233553354848","created_on":"2018-05-26 11:47:48","updated_on":"2020-02-26 08:47:48","city":"Unnamed Road, Nouakchott, Mauritania"}}
 Request - 2021-09-19 17:32:31
{"method":"getCityIdByAddressOrLatLng","address":"724,Anusaya Niwas, Uttan Rd, Bhayandar, vaijnath talao, Bhayandar West, Morva, Maharashtra 401101, India","lat":"19.289354","lng":"72.8140664"}
 Response :- 
{"status":"success","data":{"id":1,"city_name":"Accra","city_synonym":"Accra, tema, Ghana","country_id":4,"customer_care_number":"233553354848","created_on":"2018-05-26 11:47:48","updated_on":"2020-02-26 08:47:48","city":"724,Anusaya Niwas, Uttan Rd, Bhayandar, vaijnath talao, Bhayandar West, Morva, Maharashtra 401101, India"}}
 Request - 2021-09-19 18:44:37
{"method":"getCityIdByAddressOrLatLng","address":"Nana Arhin Cres, Tarkwa, Ghana","lat":"5.3092019","lng":"-1.9858589"}
 Response :- 
{"status":"success","data":{"id":1,"city_name":"Accra","city_synonym":"Accra, tema, Ghana","country_id":4,"customer_care_number":"233553354848","created_on":"2018-05-26 11:47:48","updated_on":"2020-02-26 08:47:48","city":"Nana Arhin Cres, Tarkwa, Ghana"}}
 Request - 2021-09-19 20:55:48
{"method":"getCityIdByAddressOrLatLng","address":"Kampala, Uganda","lat":"0.3475964","lng":"32.5825197"}
 Response :- 
{"status":"success","data":{"id":1,"city_name":"Accra","city_synonym":"Accra, tema, Ghana","country_id":4,"customer_care_number":"233553354848","created_on":"2018-05-26 11:47:48","updated_on":"2020-02-26 08:47:48","city":"BAR AVIATION, Kajjansi Airfield, Route aeroport, Kampala, Uganda"}}